[
  {
    "gu": "동작구",
    "dbnum": "43641",
    "searchKeyword": "사당솔밭도서관",
    "matchedName": "사당솔밭도서관",
    "address": "서울 동작구 사당동 708-1188",
    "roadAddress": "서울 동작구 솔밭로 86",
    "lat": "37.48403213246281",
    "lng": "126.96735910708873"
  },
  {
    "gu": "관악구",
    "dbnum": "42921",
    "searchKeyword": "관악중앙도서관",
    "matchedName": "관악중앙도서관",
    "address": "서울 관악구 신림동 209-1",
    "roadAddress": "서울 관악구 신림로3길 35",
    "lat": "37.46705411409455",
    "lng": "126.94476867051847"
  },
  {
    "gu": "중랑구",
    "dbnum": "99071",
    "searchKeyword": "중랑구립도서관",
    "matchedName": "중랑구립정보도서관",
    "address": "서울 중랑구 묵동 22",
    "roadAddress": "서울 중랑구 신내로15길 197",
    "lat": "37.61524044821545",
    "lng": "127.0869527012108"
  },
  {
    "gu": "용산구",
    "dbnum": "88341",
    "searchKeyword": "용산꿈나무도서관",
    "matchedName": "용산꿈나무도서관",
    "address": "서울 용산구 원효로1가 25",
    "roadAddress": "서울 용산구 백범로 329",
    "lat": "37.5390036092211",
    "lng": "126.965258884714"
  },
  {
    "gu": "광진구",
    "dbnum": "19071",
    "searchKeyword": "광진정보도서관",
    "matchedName": "광진정보도서관",
    "address": "서울 광진구 광장동 112",
    "roadAddress": "서울 광진구 아차산로78길 90",
    "lat": "37.55106994644599",
    "lng": "127.11060915357692"
  },
  {
    "gu": "동대문구",
    "dbnum": "68831",
    "searchKeyword": "동대문구정보화도서관",
    "matchedName": "동대문구정보화도서관",
    "address": "서울 동대문구 청량리동 206-19",
    "roadAddress": "서울 동대문구 회기로10길 60",
    "lat": "37.5898911041047",
    "lng": "127.047328254504"
  },
  {
    "gu": "도봉구",
    "dbnum": "43361",
    "searchKeyword": "도봉문화정보도서관",
    "matchedName": "도봉문화정보도서관",
    "address": "서울 도봉구 창동 418",
    "roadAddress": "서울 도봉구 덕릉로 315",
    "lat": "37.6445499352563",
    "lng": "127.043999919307"
  },
  {
    "gu": "노원구",
    "dbnum": "43081",
    "searchKeyword": "노원중앙도서관",
    "matchedName": "노원중앙도서관",
    "address": "서울 노원구 상계동 686",
    "roadAddress": "서울 노원구 노원로34길 43",
    "lat": "37.66106965639641",
    "lng": "127.06500809784696"
  },
  {
    "gu": "성동구",
    "dbnum": "34141",
    "searchKeyword": "성동구립도서관",
    "matchedName": "성동구립도서관",
    "address": "서울 성동구 행당동 142-4",
    "roadAddress": "서울 성동구 고산자로10길 9",
    "lat": "37.55918951636491",
    "lng": "127.03496099832289"
  },
  {
    "gu": "은평구",
    "dbnum": "33451",
    "searchKeyword": "은평구립도서관",
    "matchedName": "은평구립도서관",
    "address": "서울 은평구 불광동 산 59-32",
    "roadAddress": "서울 은평구 통일로78가길 13-84",
    "lat": "37.619049316454",
    "lng": "126.928381841584"
  },
  {
    "gu": "송파구",
    "dbnum": "44381",
    "searchKeyword": "가락몰도서관",
    "matchedName": "가락몰 도서관",
    "address": "서울 송파구 가락동 600",
    "roadAddress": "서울 송파구 양재대로 932",
    "lat": "37.49498961772475",
    "lng": "127.11547599284663"
  },
  {
    "gu": "종로구",
    "dbnum": "88361",
    "searchKeyword": "청운문학도서관",
    "matchedName": "청운문학도서관",
    "address": "서울 종로구 청운동 4-20",
    "roadAddress": "서울 종로구 자하문로36길 40",
    "lat": "37.5904038281362",
    "lng": "126.96590530631"
  },
  {
    "gu": "중구",
    "dbnum": "44701",
    "searchKeyword": "가온도서관",
    "matchedName": "중구구립 가온도서관",
    "address": "서울 중구 신당동 425-11",
    "roadAddress": "서울 중구 동호로14길 18",
    "lat": "37.55636596450095",
    "lng": "127.0108387456178"
  },
  {
    "gu": "구로구",
    "dbnum": "42331",
    "searchKeyword": "개봉도서관",
    "matchedName": "개봉도서관",
    "address": "서울 구로구 개봉동 266",
    "roadAddress": "서울 구로구 개봉로16길 30-11",
    "lat": "37.48906560958533",
    "lng": "126.85890398698226"
  },
  {
    "gu": "강북구",
    "dbnum": "88351",
    "searchKeyword": "강북문화정보도서관",
    "matchedName": "강북문화정보도서관",
    "address": "서울 강북구 번동 산 27-108",
    "roadAddress": "서울 강북구 오현로 145",
    "lat": "37.62489854721974",
    "lng": "127.03601125702522"
  },
  {
    "gu": "강동구",
    "dbnum": "21841",
    "searchKeyword": "강동구립강일도서관",
    "matchedName": "강동구립강일도서관",
    "address": "서울 강동구 강일동 678",
    "roadAddress": "서울 강동구 아리수로93길 9-14",
    "lat": "37.5650447488513",
    "lng": "127.17388820169033"
  },
  {
    "gu": "서초구",
    "dbnum": "88431",
    "searchKeyword": "서초구립반포도서관",
    "matchedName": "서초구립반포도서관",
    "address": "서울 서초구 반포동 32-12",
    "roadAddress": "서울 서초구 고무래로 34",
    "lat": "37.5024886017556",
    "lng": "127.012544317106"
  },
  {
    "gu": "양천구",
    "dbnum": "44451",
    "searchKeyword": "서울 양천구 갈산도서관",
    "matchedName": "갈산공공도서관",
    "address": "서울 양천구 신정동 337-9",
    "roadAddress": "서울 양천구 목동남로4길 48-6",
    "lat": "37.508766650295534",
    "lng": "126.86715169067735"
  },
  {
    "gu": "금천구",
    "dbnum": "107191",
    "searchKeyword": "금나래도서관",
    "matchedName": "금천구립금나래도서관",
    "address": "서울 금천구 시흥동 1020",
    "roadAddress": "서울 금천구 시흥대로73길 70",
    "lat": "37.45646657552785",
    "lng": "126.89573760091004"
  },
  {
    "gu": "강남구",
    "dbnum": "50421",
    "searchKeyword": "도곡정보문화도서관",
    "matchedName": "도곡정보문화도서관",
    "address": "서울 강남구 도곡동 892-6",
    "roadAddress": "서울 강남구 도곡로18길 57",
    "lat": "37.4881641147195",
    "lng": "127.038742912705"
  },
  {
    "gu": "강서구",
    "dbnum": "42871",
    "searchKeyword": "서울 강서구 가양도서관",
    "matchedName": "강서구립 가양도서관",
    "address": "서울 강서구 가양동 1493",
    "roadAddress": "서울 강서구 양천로61길 101",
    "lat": "37.5594278014627",
    "lng": "126.865302989472"
  },
  {
    "gu": "성북구",
    "dbnum": "44301",
    "searchKeyword": "성북정보도서관",
    "matchedName": "성북정보도서관",
    "address": "서울 성북구 상월곡동 24-348",
    "roadAddress": "서울 성북구 화랑로18자길 13",
    "lat": "37.6049723386975",
    "lng": "127.050599359915"
  },
  {
    "gu": "마포구",
    "dbnum": "88421",
    "searchKeyword": "마포중앙도서관",
    "matchedName": "마포중앙도서관",
    "address": "서울 마포구 성산동 275-3",
    "roadAddress": "서울 마포구 성산로 128",
    "lat": "37.56373600080743",
    "lng": "126.90811569951101"
  },
  {
    "gu": "서대문구",
    "dbnum": "43921",
    "searchKeyword": "서대문구립이진아기념도서관",
    "matchedName": "서대문구립이진아기념도서관",
    "address": "서울 서대문구 현저동 101",
    "roadAddress": "서울 서대문구 독립문공원길 80",
    "lat": "37.572954443895654",
    "lng": "126.95554868549858"
  },
  {
    "gu": "영등포구",
    "dbnum": "88631",
    "searchKeyword": "여의샛강도서관",
    "matchedName": "여의샛강도서관",
    "address": "서울 영등포구 여의도동 28-1",
    "roadAddress": "서울 영등포구 여의대로 24",
    "lat": "37.5216797272756",
    "lng": "126.920048533997"
  }
]